[{"name":"London City Airport","latitude":51.5048437,"longitude":0.049518,"geopoint":{"type":"Point","coordinates":[0.049518,51.5048437]}},{"name":"London City Airport Jet Centre","latitude":51.5047697,"longitude":0.0403789,"geopoint":{"type":"Point","coordinates":[0.0403789,51.5047697]}},{"name":"Airport Force Ltd","latitude":51.5399513,"longitude":-0.0537234,"geopoint":{"type":"Point","coordinates":[-0.0537234,51.5399513]}},{"name":"Croydon Airport Society","latitude":51.3565427,"longitude":-0.1176014,"geopoint":{"type":"Point","coordinates":[-0.1176014,51.3565427]}},{"name":"London Biggin Hill Airport (BQH - EGKB)","latitude":51.3319582,"longitude":0.0290574,"geopoint":{"type":"Point","coordinates":[0.0290574,51.3319582]}}]