[{"name":"AceNDogs (Ace and Dogs)","latitude":51.4896377,"longitude":-0.0663342,"geopoint":{"type":"Point","coordinates":[-0.0663342,51.4896377]}},{"name":"Shoreditch Dog House","latitude":51.528346,"longitude":-0.075908,"geopoint":{"type":"Point","coordinates":[-0.075908,51.528346]}},{"name":"The London Dog House","latitude":51.539704,"longitude":-0.0579354,"geopoint":{"type":"Point","coordinates":[-0.0579354,51.539704]}},{"name":"The Darling Dog Company","latitude":51.5576475,"longitude":-0.0789764,"geopoint":{"type":"Point","coordinates":[-0.0789764,51.5576475]}},{"name":"Dog And Bone Pet Care","latitude":51.53132,"longitude":-0.021002,"geopoint":{"type":"Point","coordinates":[-0.021002,51.53132]}},{"name":"Dogbliss Dog Daycare and Dog Walking","latitude":51.5299907,"longitude":-0.0427007,"geopoint":{"type":"Point","coordinates":[-0.0427007,51.5299907]}},{"name":"Groom Dog City","latitude":51.5306072,"longitude":-0.0710889,"geopoint":{"type":"Point","coordinates":[-0.0710889,51.5306072]}},{"name":"Cats, Dogs & Peace of Mind","latitude":51.5137946,"longitude":-0.1021686,"geopoint":{"type":"Point","coordinates":[-0.1021686,51.5137946]}},{"name":"Wanderdog - Puppy & Dog Training","latitude":51.5012008,"longitude":-0.0844513,"geopoint":{"type":"Point","coordinates":[-0.0844513,51.5012008]}},{"name":"City Dog","latitude":51.5243723,"longitude":-0.0808405,"geopoint":{"type":"Point","coordinates":[-0.0808405,51.5243723]}},{"name":"BOW WOW London Dog Grooming","latitude":51.5182943,"longitude":-0.1245091,"geopoint":{"type":"Point","coordinates":[-0.1245091,51.5182943]}},{"name":"Hackney Hounds","latitude":51.5393672,"longitude":-0.0710717,"geopoint":{"type":"Point","coordinates":[-0.0710717,51.5393672]}},{"name":"Dog Boutique","latitude":51.4970566,"longitude":-0.1453312,"geopoint":{"type":"Point","coordinates":[-0.1453312,51.4970566]}},{"name":"Dog Sitting, Dog Daycare, Cat Care, Pet Services","latitude":51.4765235,"longitude":-0.1490621,"geopoint":{"type":"Point","coordinates":[-0.1490621,51.4765235]}},{"name":"Doug's Dogs Limited","latitude":51.5213507,"longitude":-0.0314311,"geopoint":{"type":"Point","coordinates":[-0.0314311,51.5213507]}},{"name":"Master Dog","latitude":51.520019,"longitude":-0.16245,"geopoint":{"type":"Point","coordinates":[-0.16245,51.520019]}},{"name":"Sniffles Dog Grooming Spa","latitude":51.5531744,"longitude":-0.1586574,"geopoint":{"type":"Point","coordinates":[-0.1586574,51.5531744]}},{"name":"George and friends","latitude":51.5553069,"longitude":-0.0668241,"geopoint":{"type":"Point","coordinates":[-0.0668241,51.5553069]}},{"name":"101 Friends For Every Dog","latitude":51.4689653,"longitude":-0.1458569,"geopoint":{"type":"Point","coordinates":[-0.1458569,51.4689653]}},{"name":"Naomi and the Dogs","latitude":51.4731696,"longitude":-0.0622426,"geopoint":{"type":"Point","coordinates":[-0.0622426,51.4731696]}}]