[{"name":"The Ship Tavern","latitude":51.5172536,"longitude":-0.1191819,"geopoint":{"type":"Point","coordinates":[-0.1191819,51.5172536]}},{"name":"Waxy O'Connor's","latitude":51.510819,"longitude":-0.132399,"geopoint":{"type":"Point","coordinates":[-0.132399,51.510819]}},{"name":"Dover Castle Bar","latitude":51.5004697,"longitude":-0.0928028,"geopoint":{"type":"Point","coordinates":[-0.0928028,51.5004697]}},{"name":"The Stores","latitude":51.5312105,"longitude":-0.1208465,"geopoint":{"type":"Point","coordinates":[-0.1208465,51.5312105]}},{"name":"The Back Room","latitude":51.5041546,"longitude":-0.1492734,"geopoint":{"type":"Point","coordinates":[-0.1492734,51.5041546]}},{"name":"BAR 45","latitude":51.5063935,"longitude":-0.1515456,"geopoint":{"type":"Point","coordinates":[-0.1515456,51.5063935]}},{"name":"Cask Pub & Kitchen","latitude":51.4911333,"longitude":-0.1373472,"geopoint":{"type":"Point","coordinates":[-0.1373472,51.4911333]}},{"name":"Old Tom's Bar","latitude":51.5129051,"longitude":-0.0833389,"geopoint":{"type":"Point","coordinates":[-0.0833389,51.5129051]}},{"name":"The Marquis of Granby","latitude":51.4952101,"longitude":-0.1271031,"geopoint":{"type":"Point","coordinates":[-0.1271031,51.4952101]}},{"name":"The Camden Head Pub","latitude":51.53729,"longitude":-0.1410034,"geopoint":{"type":"Point","coordinates":[-0.1410034,51.53729]}},{"name":"Flying Horse","latitude":51.5165062,"longitude":-0.1306248,"geopoint":{"type":"Point","coordinates":[-0.1306248,51.5165062]}},{"name":"The Harp, Covent Garden","latitude":51.5097194,"longitude":-0.1259429,"geopoint":{"type":"Point","coordinates":[-0.1259429,51.5097194]}},{"name":"Pub On The Park","latitude":51.5420883,"longitude":-0.0581943,"geopoint":{"type":"Point","coordinates":[-0.0581943,51.5420883]}},{"name":"O'Neill's Kings Cross","latitude":51.528936,"longitude":-0.1261751,"geopoint":{"type":"Point","coordinates":[-0.1261751,51.528936]}},{"name":"The Fire Station","latitude":51.5025545,"longitude":-0.1105725,"geopoint":{"type":"Point","coordinates":[-0.1105725,51.5025545]}},{"name":"The Crown","latitude":51.5112053,"longitude":-0.1364901,"geopoint":{"type":"Point","coordinates":[-0.1364901,51.5112053]}},{"name":"The Dickens Inn","latitude":51.5067688,"longitude":-0.0702506,"geopoint":{"type":"Point","coordinates":[-0.0702506,51.5067688]}},{"name":"The Admiralty, Trafalgar Square","latitude":51.5073029,"longitude":-0.1288474,"geopoint":{"type":"Point","coordinates":[-0.1288474,51.5073029]}},{"name":"Bar Kick","latitude":51.526849,"longitude":-0.078222,"geopoint":{"type":"Point","coordinates":[-0.078222,51.526849]}},{"name":"Long Arm Sports Pub & Brewery, Worship Street","latitude":51.5220718,"longitude":-0.085538,"geopoint":{"type":"Point","coordinates":[-0.085538,51.5220718]}}]