[{"name":"Dover Castle Bar","latitude":51.5004697,"longitude":-0.0928028,"geopoint":{"type":"Point","coordinates":[-0.0928028,51.5004697]}},{"name":"BAR 45","latitude":51.5063935,"longitude":-0.1515456,"geopoint":{"type":"Point","coordinates":[-0.1515456,51.5063935]}},{"name":"The Camden Head Pub","latitude":51.53729,"longitude":-0.1410034,"geopoint":{"type":"Point","coordinates":[-0.1410034,51.53729]}},{"name":"Millers","latitude":51.5316667,"longitude":-0.1211111,"geopoint":{"type":"Point","coordinates":[-0.1211111,51.5316667]}},{"name":"Night & Day Bar","latitude":51.5217521,"longitude":-0.1241276,"geopoint":{"type":"Point","coordinates":[-0.1241276,51.5217521]}},{"name":"O'Neill's Wardour Street","latitude":51.5113486,"longitude":-0.1322006,"geopoint":{"type":"Point","coordinates":[-0.1322006,51.5113486]}},{"name":"The Warwick","latitude":51.510679,"longitude":-0.137343,"geopoint":{"type":"Point","coordinates":[-0.137343,51.510679]}},{"name":"Zoo Bar & Club","latitude":51.510896,"longitude":-0.129072,"geopoint":{"type":"Point","coordinates":[-0.129072,51.510896]}},{"name":"The Wigmore","latitude":51.5174988,"longitude":-0.1432782,"geopoint":{"type":"Point","coordinates":[-0.1432782,51.5174988]}},{"name":"The Ship Tavern","latitude":51.5172536,"longitude":-0.1191819,"geopoint":{"type":"Point","coordinates":[-0.1191819,51.5172536]}},{"name":"Waxy O'Connor's","latitude":51.510819,"longitude":-0.132399,"geopoint":{"type":"Point","coordinates":[-0.132399,51.510819]}},{"name":"The Stores","latitude":51.5312105,"longitude":-0.1208465,"geopoint":{"type":"Point","coordinates":[-0.1208465,51.5312105]}},{"name":"The Back Room","latitude":51.5041546,"longitude":-0.1492734,"geopoint":{"type":"Point","coordinates":[-0.1492734,51.5041546]}},{"name":"Cask Pub & Kitchen","latitude":51.4911333,"longitude":-0.1373472,"geopoint":{"type":"Point","coordinates":[-0.1373472,51.4911333]}},{"name":"Neighbour","latitude":51.5511458,"longitude":-0.1404645,"geopoint":{"type":"Point","coordinates":[-0.1404645,51.5511458]}},{"name":"Draft House, Queen Charlotte","latitude":51.5192539,"longitude":-0.1357339,"geopoint":{"type":"Point","coordinates":[-0.1357339,51.5192539]}},{"name":"The Footman","latitude":51.5085095,"longitude":-0.146125,"geopoint":{"type":"Point","coordinates":[-0.146125,51.5085095]}},{"name":"Old Tom's Bar","latitude":51.5129051,"longitude":-0.0833389,"geopoint":{"type":"Point","coordinates":[-0.0833389,51.5129051]}},{"name":"Rose Pub & Kitchen","latitude":51.474899,"longitude":-0.039662,"geopoint":{"type":"Point","coordinates":[-0.039662,51.474899]}},{"name":"The Marquis of Granby","latitude":51.4952101,"longitude":-0.1271031,"geopoint":{"type":"Point","coordinates":[-0.1271031,51.4952101]}}]