[{"name":"UCL Institute of Archaeology","latitude":51.5249078,"longitude":-0.1315796,"geopoint":{"type":"Point","coordinates":[-0.1315796,51.5249078]}},{"name":"Don Gratton House (University Of The Arts London)","latitude":51.5185384,"longitude":-0.065929,"geopoint":{"type":"Point","coordinates":[-0.065929,51.5185384]}},{"name":"City, University of London","latitude":51.5279719,"longitude":-0.1024624,"geopoint":{"type":"Point","coordinates":[-0.1024624,51.5279719]}},{"name":"London School of Business and Finance- Professional Qualifications","latitude":51.5214102,"longitude":-0.0896779,"geopoint":{"type":"Point","coordinates":[-0.0896779,51.5214102]}},{"name":"University of Westminster Marylebone Hall","latitude":51.5223523,"longitude":-0.1549735,"geopoint":{"type":"Point","coordinates":[-0.1549735,51.5223523]}},{"name":"Morley College London","latitude":51.4980457,"longitude":-0.1097722,"geopoint":{"type":"Point","coordinates":[-0.1097722,51.4980457]}},{"name":"Oxford House College","latitude":51.515649,"longitude":-0.134586,"geopoint":{"type":"Point","coordinates":[-0.134586,51.515649]}},{"name":"London South Bank University","latitude":51.4979978,"longitude":-0.1021644,"geopoint":{"type":"Point","coordinates":[-0.1021644,51.4979978]}},{"name":"The Royal College of Surgeons of England","latitude":51.5155335,"longitude":-0.1156012,"geopoint":{"type":"Point","coordinates":[-0.1156012,51.5155335]}},{"name":"Hult International Business School - Undergraduate Campus","latitude":51.5151934,"longitude":-0.0678974,"geopoint":{"type":"Point","coordinates":[-0.0678974,51.5151934]}},{"name":"Royal College of Physicians","latitude":51.525795,"longitude":-0.1453701,"geopoint":{"type":"Point","coordinates":[-0.1453701,51.525795]}},{"name":"Birkbeck, University of London","latitude":51.5220032,"longitude":-0.129919,"geopoint":{"type":"Point","coordinates":[-0.129919,51.5220032]}},{"name":"SOAS University of London","latitude":51.52235,"longitude":-0.129259,"geopoint":{"type":"Point","coordinates":[-0.129259,51.52235]}},{"name":"University of the Arts London","latitude":51.5178589,"longitude":-0.1165507,"geopoint":{"type":"Point","coordinates":[-0.1165507,51.5178589]}},{"name":"London College of Fashion","latitude":51.5156771,"longitude":-0.1431952,"geopoint":{"type":"Point","coordinates":[-0.1431952,51.5156771]}},{"name":"New City College, Hackney","latitude":51.5306517,"longitude":-0.078847,"geopoint":{"type":"Point","coordinates":[-0.078847,51.5306517]}},{"name":"Chelsea College of Arts.","latitude":51.4902418,"longitude":-0.1282954,"geopoint":{"type":"Point","coordinates":[-0.1282954,51.4902418]}},{"name":"Institute and Faculty of Actuaries","latitude":51.5179717,"longitude":-0.111776,"geopoint":{"type":"Point","coordinates":[-0.111776,51.5179717]}},{"name":"SAE Institute London","latitude":51.537267,"longitude":-0.076951,"geopoint":{"type":"Point","coordinates":[-0.076951,51.537267]}},{"name":"Kensington College of Business","latitude":51.5173371,"longitude":-0.1441893,"geopoint":{"type":"Point","coordinates":[-0.1441893,51.5173371]}}]